[
  {
    "id": "1",
    "name": "Schmeler-Ruecker",
    "lat": "23.0225365",
    "lng": "72.5713739",
    "category": "Cinema",
    "address": "75 Arapahoe Hill",
    "city": "Ahmedabad",
    "state": "Gujarat",
    "postal": "54016",
    "phone": "359 521 3363",
    "web": "https://multiply.com",
    "featured": true,
    "features": "Online Ordering"
  },
  {
    "id": "2",
    "name": "Robel-Rempel",
    "lat": "23.0345678",
    "lng": "72.5498765",
    "category": "Hospital",
    "address": "5328 Roth Street",
    "city": "Ahmedabad",
    "state": "Gujarat",
    "postal": "Postal 2",
    "phone": "938 363 7084",
    "web": "https://symantec.com",
    "featured": false,
    "features": "Features 2"
  },
  {
    "id": "1",
    "name": "Goyette, Balistreri and Parker",
    "lat": "23.0178945",
    "lng": "72.6102938",
    "category": "Mall",
    "address": "37853 Darwin Center",
    "city": "Ahmedabad",
    "state": "Gujarat",
    "postal": "Postal 3",
    "phone": "623 941 7824",
    "web": "https://bloglovin.com",
    "featured": false,
    "features": "Features 3"
  },
  {
    "id": "2",
    "name": "Schaden-Jakubowski",
    "lat": "22.9876543",
    "lng": "72.5998754",
    "category": "Hotel",
    "address": "177 Brown Point",
    "city": "Ahmedabad",
    "state": "Gujarat",
    "postal": "Postal 4",
    "phone": "100 843 7651",
    "web": "https://oracle.com",
    "featured": true,
    "features": "Features 4"
  },
  {
    "id": "5",
    "name": "Bernhard, Ullrich and Berge",
    "lat": "22.9987654",
    "lng": "72.5854321",
    "category": "Hospital",
    "address": "069 Fremont Place",
    "city": "Ahmedabad",
    "state": "Gujarat",
    "postal": "Postal 5",
    "phone": "923 230 9032",
    "web": "http://de.vu",
    "featured": false,
    "features": "Features 5"
  },
  {
    "id": "6",
    "name": "Trantow Inc",
    "lat": "23.0112387",
    "lng": "72.6210876",
    "category": "Hospital",
    "address": "70778 Graceland Alley",
    "city": "Ahmedabad",
    "state": "Gujarat",
    "postal": "Postal 6",
    "phone": "404 280 1201",
    "web": "http://pinterest.com",
    "featured": false,
    "features": "Features 6"
  },
  {
    "id": "7",
    "name": "Leannon-Mann",
    "lat": "22.9957684",
    "lng": "72.6032189",
    "category": "Mall",
    "address": "99 Southridge Terrace",
    "city": "Ahmedabad",
    "state": "Gujarat",
    "postal": "Postal 7",
    "phone": "608 434 9242",
    "web": "http://engadget.com",
    "featured": true,
    "features": "Features 7"
  },
  {
    "id": "8",
    "name": "Gislason, Doyle and Rice",
    "lat": "22.9880573",
    "lng": "72.5967124",
    "category": "Mall",
    "address": "19779 Alpine Plaza",
    "city": "Ahmedabad",
    "state": "Gujarat",
    "postal": "Postal 8",
    "phone": "168 853 7838",
    "web": "http://rakuten.co.jp",
    "featured": false,
    "features": "Features 8"
  },
  {
    "id": "9",
    "name": "Volkman Inc",
    "lat": "23.0051876",
    "lng": "72.5883612",
    "category": "Hospital",
    "address": "83437 Victoria Trail",
    "city": "Ahmedabad",
    "state": "Gujarat",
    "postal": "Postal 9",
    "phone": "838 402 3742",
    "web": "https://nationalgeographic.com",
    "featured": false,
    "features": "Features 9"
  },
  {
    "id": "10",
    "name": "Corwin, Hammes and Schoen",
    "lat": "22.9985421",
    "lng": "72.5798654",
    "category": "Hotel",
    "address": "7388 Packers Plaza",
    "city": "Ahmedabad",
    "state": "Gujarat",
    "postal": "Postal 10",
    "phone": "711 921 5871",
    "web": "http://ehow.com",
    "featured": true,
    "features": "Features 10"
  },
  {
    "id": "11",
    "name": "Ernser, Gerlach and Walker",
    "lat": "23.0014368",
    "lng": "72.6073281",
    "category": "Hotel",
    "address": "8 Onsgard Street",
    "city": "Ahmedabad",
    "state": "Gujarat",
    "postal": "Postal 11",
    "phone": "109 992 9049",
    "web": "http://netlog.com",
    "featured": false,
    "features": "Features 11"
  },
  {
    "id": "12",
    "name": "Harris, Willms and Weimann",
    "lat": "23.0268790",
    "lng": "72.6159827",
    "category": "Hospital",
    "address": "77 Corscot Pass",
    "city": "Ahmedabad",
    "state": "Gujarat",
    "postal": "Postal 12",
    "phone": "488 559 9028",
    "web": "http://fastcompany.com",
    "featured": false,
    "features": "Features 12"
  },
  {
    "id": "13",
    "name": "Batz and Sons",
    "lat": "22.9867534",
    "lng": "72.5739812",
    "category": "Hotel",
    "address": "28 Commercial Place",
    "city": "Ahmedabad",
    "state": "Gujarat",
    "postal": "Postal 13",
    "phone": "146 460 6885",
    "web": "http://bravesites.com",
    "featured": true,
    "features": "Features 13"
  },
  {
    "id": "14",
    "name": "Oberbrunner, Greenholt and Lynch",
    "lat": "23.0301287",
    "lng": "72.6027418",
    "category": "Mall",
    "address": "7 Manitowish Alley",
    "city": "Ahmedabad",
    "state": "Gujarat",
    "postal": "Postal 14",
    "phone": "623 325 1011",
    "web": "https://tinyurl.com",
    "featured": false,
    "features": "Features 14"
  },
  {
    "id": "15",
    "name": "Armstrong, Mann and Hirthe",
    "lat": "23.0219085",
    "lng": "72.6148753",
    "category": "Shop",
    "address": "9 Artisan Pass",
    "city": "Ahmedabad",
    "state": "Gujarat",
    "postal": "Postal 15",
    "phone": "566 912 4720",
    "web": "https://parallels.com",
    "featured": false,
    "features": "Features 15"
  },
  {
    "id": "16",
    "name": "West and Sons",
    "lat": "22.9976543",
    "lng": "72.5912387",
    "category": "Mall",
    "address": "99 Arrowood Junction",
    "city": "Ahmedabad",
    "state": "Gujarat",
    "postal": "Postal 16",
    "phone": "419 643 8816",
    "web": "https://utexas.edu",
    "featured": true,
    "features": "Features 16"
  },
  {
    "id": "17",
    "name": "Purdy, Lubowitz and Mohr",
    "lat": "23.0128765",
    "lng": "72.5832974",
    "category": "Shop",
    "address": "8 Novick Crossing",
    "city": "Ahmedabad",
    "state": "Gujarat",
    "postal": "Postal 17",
    "phone": "489 974 2245",
    "web": "https://phoca.cz",
    "featured": false,
    "features": "Features 17"
  },
  {
    "id": "18",
    "name": "Legros, Grant and Roberts",
    "lat": "23.0078923",
    "lng": "72.6072189",
    "category": "Hospital",
    "address": "435 Rutledge Park",
    "city": "Ahmedabad",
    "state": "Gujarat",
    "postal": "Postal 18",
    "phone": "944 658 8493",
    "web": "https://studiopress.com",
    "featured": false,
    "features": "Features 18"
  },
  {
    "id": "19",
    "name": "Stamm-Parker",
    "lat": "22.9991234",
    "lng": "72.5698754",
    "category": "Hotel",
    "address": "4 Jenifer Avenue",
    "city": "Ahmedabad",
    "state": "Gujarat",
    "postal": "Postal 19",
    "phone": "426 512 5093",
    "web": "https://whitehouse.gov",
    "featured": true,
    "features": "Features 19"
  },
  {
    "id": "20",
    "name": "Cormier-Christiansen",
    "lat": "23.0197681",
    "lng": "72.6216543",
    "category": "Mall",
    "address": "703 Arizona Point",
    "city": "Ahmedabad",
    "state": "Gujarat",
    "postal": "Postal 20",
    "phone": "416 142 4126",
    "web": "https://usatoday.com",
    "featured": false,
    "features": "Features 20"
  },
  {
    "id": "21",
    "name": "Stracke, Hoeger and Jaskolski",
    "lat": "23.0048927",
    "lng": "72.6023564",
    "category": "Hotel",
    "address": "9 Golden Leaf Park",
    "city": "Ahmedabad",
    "state": "Gujarat",
    "postal": "Postal 21",
    "phone": "931 260 4042",
    "web": "http://i2i.jp",
    "featured": true,
    "features": "Features 21"
  },
  {
    "id": "22",
    "name": "Yundt-Nader",
    "lat": "23.0185436",
    "lng": "72.6119875",
    "category": "Hospital",
    "address": "005 Dryden Point",
    "city": "Ahmedabad",
    "state": "Gujarat",
    "postal": "Postal 22",
    "phone": "245 695 0920",
    "web": "https://mayoclinic.com",
    "featured": false,
    "features": "Features 22"
  },
  {
    "id": "23",
    "name": "Heidenreich, Roob and Daugherty",
    "lat": "22.9956789",
    "lng": "72.5839102",
    "category": "Shop",
    "address": "8889 Dovetail Plaza",
    "city": "Ahmedabad",
    "state": "Gujarat",
    "postal": "Postal 23",
    "phone": "350 666 2123",
    "web": "https://vimeo.com",
    "featured": false,
    "features": "Features 23"
  },
  {
    "id": "24",
    "name": "Kris Group",
    "lat": "23.0248162",
    "lng": "72.6054321",
    "category": "Cinema",
    "address": "607 Bonner Point",
    "city": "Ahmedabad",
    "state": "Gujarat",
    "postal": "Postal 24",
    "phone": "441 761 3244",
    "web": "http://redcross.org",
    "featured": true,
    "features": "Features 24"
  },
  {
    "id": "25",
    "name": "Walsh and Sons",
    "lat": "23.0163298",
    "lng": "72.6128765",
    "category": "Hospital",
    "address": "84054 Buena Vista Junction",
    "city": "Ahmedabad",
    "state": "Gujarat",
    "postal": "Postal 25",
    "phone": "975 578 6558",
    "web": "http://amazonaws.com",
    "featured": false,
    "features": "Features 25"
  }
]